[
  {
    "name": "Bench at water Elbe",
    "latitude": 53.5716087,
    "longitude": 9.6740014,
    "image": "https://example.com/orta.jpg",
    "description": "Bench at Hamburgs Yacht Harbour with beautiful view on the Elbe and passing Cargoships",
    "type": "bench",
    "tags": ["water", "harbour", "elbe"]
  },
  {
    "name": "Bench at water Elbe 2",
    "latitude": 53.5715442,
    "longitude": 9.6743027,
    "image": "https://example.com/ortb.jpg",
    "description": "Bench at Hamburgs Yacht Harbour with beautiful view on the Elbe and passing Cargoships",
    "type": "bench",
    "tags": ["water", "harbour", "elbe"]
  },
  {
    "name": "Bench at small street in the Forest",
    "latitude": 50.7711111,
    "longitude": 15.7675,
    "image": "bench3.PNG",
    "description": "A bench at a small street in front of a forest",
    "type": "bench",
    "tags": ["forest", "town", "street"]
  },
  {
    "name": "Fummelfelsen / lovers rock",
    "latitude": 50.633646,
    "longitude": 6.400134,
    "image": "fummelfelsen.jpg",
    "description": "This cliff is a beautiful place where people enjoy making out. Watch out for the height and the loose dirt",
    "type": "other",
    "tags": ["forest", "water", "hill", "cliff"]
  },
  {
    "name": "Rock with view",
    "latitude": 50.6313953,
    "longitude": 6.4131169,
    "image": "rockincliff.jpg",
    "description": "Rock with a beautiful view on the water - may be a bit difficult to find",
    "type": "other",
    "tags": ["forest", "water", "picknick", "cliff"]
  },
  {
    "name": "Bench in forest water view",
    "latitude": 50.6266661,
    "longitude": 6.3992782,
    "image": "bencheifel.jpg",
    "description": "Beautiful view down a hill in a forest on the water",
    "type": "bench",
    "tags": ["forest", "water"]
  },
  {
    "name": "Bench Worbelescheed",
    "latitude": 50.5824818,
    "longitude": 6.3225809,
    "image": "bankscheede.jpg",
    "description": "Beautiful bench in the middle of nowhere",
    "type": "bench",
    "tags": ["field"]
  },
  {
    "name": "Cosler kreuz",
    "latitude": 50.628498,
    "longitude": 6.2686,
    "image": "townbench.jpg",
    "description": "A nice bench in the crossing of 2 streets in a small town",
    "type": "bench",
    "tags": ["town", "field"]
  },
  {
    "name": "Beach in Aachen",
    "latitude": 50.6344444,
    "longitude": 6.4075,
    "image": "aachenstrand.jpeg",
    "description": "This is a small beach noone knows and which is very lonely. Perfect for deeptalks with friends, swimming or chilling",
    "type": "beach",
    "tags": ["swimming", "forest", "lonely"]
  }
]
