[
  {
    "name": "Bench at water Elbe",
    "latitude": 53.5716087,
    "longitude": 9.6740014,
    "image": "https://example.com/orta.jpg",
    "description": "Bench at Hamburgs Yacht Harbour with beautiful view on the Elbe and passing Cargoships",
    "type": "bench",
    "tags": ["water", "harbour", "elbe"],
    "country": "Germany"
  },
  {
    "name": "Bench at water Elbe 2",
    "latitude": 53.5715442,
    "longitude": 9.6743027,
    "image": "https://example.com/ortb.jpg",
    "description": "Bench at Hamburgs Yacht Harbour with beautiful view on the Elbe and passing Cargoships",
    "type": "bench",
    "tags": ["water", "harbour", "elbe"],
    "country": "Germany"
  },
  {
    "name": "Bench at small street in the Forest",
    "description": "A bench at a small street infront of an Forest",
    "latitude": 50.7711111,
    "longitude": 15.7675,
    "tags": ["forest", "town", "street"],
    "image": "bench3.jpg",
    "type": "bench",
    "country": "Poland"
  },
  {
    "name": "Fummelfelsen / lovers rock",
    "description": "This cliff is a beautiful place where people enjoy making out. Watch out for the height and the loose dirt",
    "latitude": 50.633646,
    "longitude": 6.400134,
    "tags": ["water", "hill", "cliff", "forest"],
    "image": "no",
    "type": "other",
    "country": "Germany"
  },
  {
    "name": "RockwithView",
    "description": "Rock with a beautiful view on the water - may be a bit difficult to find",
    "latitude": 50.6313953,
    "longitude": 6.4131169,
    "tags": ["forest", "cliff", "picknick"],
    "image": "rockincliff.png",
    "type": "other",
    "country": "Germany"
  },
  {
    "name": "Bench in forest water view",
    "description": "Beautiful view down a hill in a forest on the water",
    "latitude": 50.6266661,
    "longitude": 6.3992782,
    "tags": ["water", "forest"],
    "image": "bencheifel.png",
    "type": "bench",
    "country": "Germany"
  },
  {
    "name": "Bench Worbelescheed",
    "description": "Beautiful bench in the middle of nowhere",
    "latitude": 50.5824818,
    "longitude": 6.3225809,
    "tags": ["field"],
    "image": "bankscheede.png",
    "type": "bench",
    "country": "Germany"
  },
  {
    "name": "cosler kreuz",
    "description": "A nice bench in the crossing of 2 streets in a small town",
    "latitude": 50.628498,
    "longitude": 6.2686,
    "tags": ["town", "field"],
    "image": "townbench.png",
    "type": "bench",
    "country": "Germany"
  },
  {
    "name": "Beach in Aachen",
    "description": "This is a small beach noone knows and noone ever is. Perfekt for deeptalks with friends, swimming or chilling",
    "latitude": 50.6344444,
    "longitude": 6.4075,
    "tags": ["beach", "water", "swimming", "forest", "lonely"],
    "image": "aachenstrand.jpeg",
    "type": "beach",
    "country": "Germany"
  },
  {
    "name": "beach at a sea",
    "description": "Lonely sea in the middle of a forest, perfekt place to hang out and bbq with friends",
    "latitude": 53.616119,
    "longitude": 9.6965127,
    "tags": ["lonely", "sea", "forest"],
    "image": "none",
    "type": "beach",
    "country": "Germany"
  },
  {
    "name": "Bench in forest",
    "description": "Lonely bench at the side of a forest. You can watch horses on the nearby field",
    "latitude": 53.6170107,
    "longitude": 9.6915562,
    "tags": ["lonely", "forest", "field"],
    "image": "benchholm.png",
    "type": "bench",
    "country": "Germany"
  },
  {
    "name": "giant bench",
    "description": "This is a giant bench with a Beautiful view. You may need to climb to get up there",
    "latitude": 47.6451582,
    "longitude": 10.4327177,
    "tags": ["field", "hills"],
    "image": "giantbench.png",
    "type": "bench",
    "country": "Germany"
  },
  {
    "name": "Bench Buchenberg",
    "description": "Bench with a Beautiful view on a hill in front of a field with cows",
    "latitude": 47.7276217,
    "longitude": 10.2308772,
    "tags": ["hill", "field"],
    "image": "benchbuchenberg.png",
    "type": "bench",
    "country": "Germany"
  },
  {
    "name": "Viewbench Korreite",
    "description": "Wonderful bench with a beautiful view on the mountains, in winter or in summer the perfect place to fall in love",
    "latitude": 47.6656791,
    "longitude": 10.3914483,
    "tags": ["date", "hills", "mountain", "viewpoint", "lonely"],
    "image": "viewpointkorreite.png",
    "type": "bench",
    "country": "Germany"
  },
  {
    "name": "Bench Isny Bähnle",
    "description": "Bench with a nice view on the fields",
    "latitude": 47.7217352,
    "longitude": 10.2459898,
    "tags": ["fields", "lonely", "date"],
    "image": "benchisnybähnle.png",
    "type": "bench",
    "country": "Germany"
  },
  {
    "name": "Vier Seen Blick",
    "description": "Bench way up in the mountains. Here you can have a beautiful view to the lower land. You will be absolutely alone, up here noone comes",
    "latitude": 50.1087236,
    "longitude": 7.1257229,
    "tags": ["hill", "mountain", "water", "high", "town", "lonely"],
    "image": "vierseenbench.png",
    "type": "bench",
    "country": "Germany"
  },
  {
    "name": "Death scare / Todesangst",
    "description": "This bench is hard to find but the view and the loneliness is worth the way but be careful",
    "latitude": 50.1060048,
    "longitude": 7.1356526,
    "tags": ["high", "mountain", "lonely", "peace", "forest"],
    "image": "deathscarebench.png",
    "type": "bench",
    "country": "Germany"
  },
  {
    "name": "Bench \"Schöne Aussicht\"",
    "description": "This bench is way up high in the mountains. Thats why its very lonely and you wont be disturbed here. The perfect place to enjoy the sunset on the horizon which you can perfectly see while sitting on the bench. But be aware you need to go down all the way again. To find it, follow the \"Schöne Aussicht\" signs on the trail",
    "latitude": 50.1144313,
    "longitude": 7.1440312,
    "tags": ["lonely", "mountain", "train"],
    "image": "viewbench.png",
    "type": "bench",
    "country": "Germany"
  },
  {
    "name": "Ightenhill Burnley bench",
    "description": "Bench with view of Pendle hill",
    "latitude": 53.799594,
    "longitude": -2.2832261,
    "tags": ["view", "hill", "not that scenic", "grass land", "farm", "countryside"],
    "image": "ightenhillbench.png",
    "type": "bench",
    "country": "United Kingdom"
  },
  {
    "name": "Chimney Banks Bench",
    "description": "Bench with view in top of chimney bank, Rosedale, pickering.",
    "latitude": 54.3452994,
    "longitude": -0.8905213,
    "tags": ["countryside", "fields", "UK", "hill", "farm"],
    "image": "chimneybanksbench.png",
    "type": "bench",
    "country": "United Kingdom"
  },
  {
    "name": "Neroberg Tempel",
    "description": "Schöne Aussicht auf Wiesbaden und die Weinfelder",
    "latitude": 50.05560,
    "longitude": 8.13470,
    "tags": ["city", "winefields", "fields"],
    "image": "Nerobergtemple.jpg",
    "type": "bench",
    "country": "Germany"
  },
  {
    "name": "Öresundsbron bench",
    "latitude": 55.5700058,
    "longitude": 12.8968956,
    "image": "öresundsbronbench.png",
    "description": "A beautiful bench at the beach with a view to the water",
    "type": "bench",
    "tags": ["water", "beach"],
    "country": "Sweden"
  },
  {
    "name": "Strandvägen view rock",
    "latitude": 59.3199665,
    "longitude": 18.0507276,
    "image": "Strandvägen.png",
    "description": "Here you can have a wonderful view on the Sea while siting on this scenic viewpoint",
    "type": "picknick",
    "tags": ["water", "cliff", "lonely", "rock"],
    "country": "Sweden"
  },
  {
    "name": "Rock Garden Bench",
    "latitude": 57.677922,
    "longitude": 11.9526998,
    "image": "rockgardenbench.png",
    "description": "This bench offers a beautiful view on the nearby forest and rockland",
    "type": "bench",
    "tags": ["forest", "rock", "climbing", "lonely", "picknick"],
    "country": "Sweden"
  },
  {
    "name": "Änggarden bench",
    "latitude": 57.6694093,
    "longitude": 11.9619686,
    "image": "änggardenbench.png",
    "description": "A lonely bench in the middle of a forest with a view on a small lake",
    "type": "bench",
    "tags": ["lonely", "water", "forest"],
    "country": "Sweden"
  },
  {
    "name": "Ljungheden forest bench",
    "latitude": 57.6712908,
    "longitude": 11.9619257,
    "image": "Ljunghedenforestbench.png",
    "description": "Lonely bench in the forest of Ljungheden with a view on a lake",
    "type": "bench",
    "tags": ["water", "lake", "forest", "lonely"],
    "country": "Sweden"
  },
  {
    "name": "Ljungheden forest walk bench",
    "latitude": 57.6735665,
    "longitude": 11.9598262,
    "image": "ljunghedenforestwalkbench.png",
    "description": "One of many benches on this walk through the forest with a wonderful view on a swamp",
    "type": "bench",
    "tags": ["forest", "swamp", "lonely"],
    "country": "Sweden"
  },
  {
    "name": "Vindskydd rock beach",
    "latitude": 57.6666198,
    "longitude": 11.9659246,
    "image": "Vindskyddbeach.png",
    "description": "Rocks at the side of a lake. Wonderful place to take a break or to have a picknick",
    "type": "picknick",
    "tags": ["rock", "beach", "lake", "water", "lonely", "forest"],
    "country": "Sweden"
  },
  {
    "name": "Asbotorpsjön lake jetty",
    "latitude": 58.4100247,
    "longitude": 13.819467,
    "image": "asbotorpsjönlake.png",
    "description": "Beautiful lake with lots of nice places to stay and fall in love. The jetty is a wonderful place to sit at the first date",
    "type": "jetty",
    "tags": ["date", "water", "jetty", "lake", "forest", "lonely"],
    "country": "Sweden"
  },
  {
    "name": "Asbotorpsjön",
    "latitude": 58.4100247,
    "longitude": 13.819467,
    "image": "asbotorpsjönlakeplaces.png",
    "description": "Lake with lots of places to sit and relax feel free to explore",
    "type": "picknick",
    "tags": ["water", "lake", "forest", "lonely", "date", "swimming"],
    "country": "Sweden"
  }
]
