[
  {
    "name": "Asbotorpsjön",
    "latitude": 58.4100247,
    "longitude": 13.819467,
    "image": "asbotorpsjönlakeplaces.png",
    "description": "Lake with lots of places to sit and relax feel free to explore",
    "type": "picknick",
    "tags": ["water", "lake", "forest", "lonely", "date", "swimming"],
    "country": "Sweden"
  },
  {
    "name": "Asbotorpsjön lake jetty",
    "latitude": 58.4100247,
    "longitude": 13.819467,
    "image": "asbotorpsjönlake.png",
    "description": "Beautiful lake with lots of nice places to stay and fall in love. The jetty is a wonderful place to sit at the first date",
    "type": "jetty",
    "tags": ["date", "water", "jetty", "lake", "forest", "lonely"],
    "country": "Sweden"
  },
  {
    "name": "Beach in Aachen",
    "description": "This is a small beach noone knows and noone ever is. Perfekt for deeptalks with friends, swimming or chilling",
    "latitude": 50.6344444,
    "longitude": 6.4075,
    "tags": ["beach", "water", "swimming", "forest", "lonely"],
    "image": "aachenstrand.jpeg",
    "type": "beach",
    "country": "Germany"
  },
  {
    "name": "Bench \"Schöne Aussicht\"",
    "description": "This bench is way up high in the mountains. Thats why its very lonely and you wont be disturbed here. The perfect place to enjoy the sunset on the horizon which you can perfectly see while sitting on the bench. But be aware you need to go down all the way again. To find it, follow the \"Schöne Aussicht\" signs on the trail",
    "latitude": 50.1144313,
    "longitude": 7.1440312,
    "tags": ["lonely", "mountain", "train"],
    "image": "viewbench.png",
    "type": "bench",
    "country": "Germany"
  },
  {
    "name": "Bench at small street in the Forest",
    "description": "A bench at a small street infront of an Forest",
    "latitude": 50.7711111,
    "longitude": 15.7675,
    "tags": ["forest", "town", "street"],
    "image": "bench3.jpg",
    "type": "bench",
    "country": "Poland"
  },
  {
    "name": "Bench at water Elbe",
    "latitude": 53.5716087,
    "longitude": 9.6740014,
    "image": "https://example.com/orta.jpg",
    "description": "Bench at Hamburgs Yacht Harbour with beautiful view on the Elbe and passing Cargoships",
    "type": "bench",
    "tags": ["water", "harbour", "elbe"],
    "country": "Germany"
  },
  {
    "name": "Bench at water Elbe 2",
    "latitude": 53.5715442,
    "longitude": 9.6743027,
    "image": "https://example.com/ortb.jpg",
    "description": "Bench at Hamburgs Yacht Harbour with beautiful view on the Elbe and passing Cargoships",
    "type": "bench",
    "tags": ["water", "harbour", "elbe"],
    "country": "Germany"
  },
  {
    "name": "Bench Buchenberg",
    "description": "Bench with a Beautiful view on a hill in front of a field with cows",
    "latitude": 47.7276217,
    "longitude": 10.2308772,
    "tags": ["hill", "field"],
    "image": "benchbuchenberg.png",
    "type": "bench",
    "country": "Germany"
  },
  {
    "name": "Bench in forest",
    "description": "Lonely bench at the side of a forest. You can watch horses on the nearby field",
    "latitude": 53.6170107,
    "longitude": 9.6915562,
    "tags": ["lonely", "forest", "field"],
    "image": "benchholm.png",
    "type": "bench",
    "country": "Germany"
  },
  {
    "name": "Bench in forest water view",
    "description": "Beautiful view down a hill in a forest on the water",
    "latitude": 50.6266661,
    "longitude": 6.3992782,
    "tags": ["water", "forest"],
    "image": "bencheifel.png",
    "type": "bench",
    "country": "Germany"
  },
  {
    "name": "Bench Isny Bähnle",
    "description": "Bench with a nice view on the fields",
    "latitude": 47.7217352,
    "longitude": 10.2459898,
    "tags": ["fields", "lonely", "date"],
    "image": "benchisnybähnle.png",
    "type": "bench",
    "country": "Germany"
  },
  {
    "name": "Bench Worbelescheed",
    "description": "Beautiful bench in the middle of nowhere",
    "latitude": 50.5824818,
    "longitude": 6.3225809,
    "tags": ["field"],
    "image": "bankscheede.png",
    "type": "bench",
    "country": "Germany"
  },
  {
    "name": "beach at a sea",
    "description": "Lonely sea in the middle of a forest, perfekt plac
